[
    {
        "province": "Tierra del Fuego",
        "location": [
            -54.832543,
            -68.3712885
        ],
        "name": "SAN SEBASTIAN  ( USHUAIA )"
    },
    {
        "province": "Tierra del Fuego",
        "location": [
            -54.8249379,
            -68.3258626
        ],
        "name": "AERO PUBLICO DE USHUAIA"
    },
    {
        "province": "Tierra del Fuego",
        "location": [
            -54.8096728,
            -68.3114748
        ],
        "name": "PUERTO USHUAIA (PREFECTURA)"
    },
    {
        "province": "Tierra del Fuego",
        "location": [
            -54.8019121,
            -68.3029511
        ],
        "name": "PUERTO USHUAIA"
    },
    {
        "province": "Santa Cruz",
        "location": [
            -51.6896359,
            -72.2993574
        ],
        "name": "PASO LAURITA CASAS VIEJAS"
    },
    {
        "province": "Santa Cruz",
        "location": [
            -51.5866042,
            -72.3649779
        ],
        "name": "PASO DOROTEA"
    },
    {
        "province": "Santa Cruz",
        "location": [
            -51.2544488,
            -72.2652242
        ],
        "name": "PASO RIO DON GUILLERMO"
    },
    {
        "province": "Tierra del Fuego",
        "location": [
            -53.3229179,
            -68.6063227
        ],
        "name": "PASO SAN SEBASTIAN"
    },
    {
        "province": "Tierra del Fuego",
        "location": [
            -53.78438,
            -67.7173342
        ],
        "name": "TERMINAL RIO GRANDE"
    },
    {
        "province": "Tierra del Fuego",
        "location": [
            -53.7860374,
            -67.7002243
        ],
        "name": "PUERTO RIO GRANDE"
    },
    {
        "province": "Santa Cruz",
        "location": [
            -52.2527012,
            -69.8852885
        ],
        "name": "MONTE AYMOND"
    },
    {
        "province": "Santa Cruz",
        "location": [
            -52.1304141,
            -69.5198778
        ],
        "name": "INTEGRACION AUSTRAL"
    },
    {
        "province": "Santa Cruz",
        "location": [
            -50.283977,
            -72.0558347
        ],
        "name": "AERO EL CALAFATE"
    },
    {
        "province": "Santa Cruz",
        "location": [
            -52.3274981,
            -68.3692192
        ],
        "name": "PASO CABO VIRGENES"
    },
    {
        "province": "Santa Cruz",
        "location": [
            -51.6117879,
            -69.3085038
        ],
        "name": "AERO RIO GALLEGOS"
    },
    {
        "province": "AEROPUERTO INTERNACIONAL PILOTO CIVIL NORBERTO FERNANDEZ",
        "location": [
            -51.6117879,
            -69.3085038
        ],
        "name": "AERO RIO GALLEGOS"
    },
    {
        "province": "Santa Cruz",
        "location": [
            -51.6230485,
            -69.2168291
        ],
        "name": "PUERTO RIO GALLEGOS"
    },
    {
        "province": "Santa Cruz",
        "location": [
            -45.9146467,
            -71.6458095
        ],
        "name": "HUEMULES"
    },
    {
        "province": "Santa Cruz",
        "location": [
            -50.115518,
            -68.4132101
        ],
        "name": "PUERTO PUNTA QUILLA"
    },
    {
        "province": "Santa Cruz",
        "location": [
            -50.0247276,
            -68.5243815
        ],
        "name": "PUERTO SANTA CRUZ"
    },
    {
        "province": "Santa Cruz",
        "location": [
            -49.3068942,
            -67.7298249
        ],
        "name": "PUERTO SAN JULIAN"
    },
    {
        "province": "Santa Cruz",
        "location": [
            -46.5851781,
            -71.6706662
        ],
        "name": "PASO JEINIMENI - CHILE CHICO"
    },
    {
        "province": "Santa Cruz",
        "location": [
            -46.2752267,
            -71.7270022
        ],
        "name": "ING. PALLAVICINI - IBAÑEZ"
    },
    {
        "province": "Santa Cruz",
        "location": [
            -46.2752267,
            -71.7270022
        ],
        "name": "ING. PALLAVICINI - IBAÑEZ"
    },
    {
        "province": "Santa Cruz",
        "location": [
            -45.5236846,
            -71.6370845
        ],
        "name": "PASO COIHAIQUE"
    },
    {
        "province": "Chubut",
        "location": [
            -45.582347,
            -71.7251078
        ],
        "name": "PASO TRIANA"
    },
    {
        "province": "Santa Cruz",
        "location": [
            -47.7515646,
            -65.9013773
        ],
        "name": "PUERTO DESEADO"
    },
    {
        "province": "Chubut",
        "location": [
            -45.0144719,
            -70.8198792
        ],
        "name": "AEROPUERTO ALTO RIO SENGUER"
    },
    {
        "province": "Santa Cruz",
        "location": [
            -46.4742858,
            -67.5003124
        ],
        "name": "PUERTO CALETA OLIVIA"
    },
    {
        "province": "Chubut",
        "location": [
            -45.862387,
            -67.4664881
        ],
        "name": "PUERTO COMODORO RIVADAVIA"
    },
    {
        "province": "Chubut",
        "location": [
            -45.7894354,
            -67.4696871
        ],
        "name": "AERO COMODORO RIVADAVIA"
    },
    {
        "province": "Chubut",
        "location": [
            -45.7894354,
            -67.4696871
        ],
        "name": "AERO COMODORO RIVADAVIA"
    },
    {
        "province": "Chubut",
        "location": [
            -45.7894354,
            -67.4696871
        ],
        "name": "AEROPUERTO INTERNACIONAL GENERAL ENRIQUE MOSCONI"
    },
    {
        "province": "Chubut",
        "location": [
            -43.5877748,
            -71.7087929
        ],
        "name": "PASO RIO ENCUENTRO"
    },
    {
        "province": "Chubut",
        "location": [
            -43.3268701,
            -71.9400128
        ],
        "name": "RIO FUTALEUFU ( RIO GRANDE )"
    },
    {
        "province": "Chubut",
        "location": [
            -42.9058852,
            -71.1476449
        ],
        "name": "AERO ESQUEL"
    },
    {
        "province": "Rio Negro",
        "location": [
            -41.0833162,
            -71.8420881
        ],
        "name": "PASO PEREZ ROSALES"
    },
    {
        "province": "Rio Negro",
        "location": [
            -41.2405973,
            -71.8512404
        ],
        "name": "PASO VURILOCHE"
    },
    {
        "province": "Rio Negro",
        "location": [
            -41.1467101,
            -71.1642129
        ],
        "name": "AEROPUERTO INTERNACIONAL TENIENTE LUIS CANDELARIA DE SAN CARLOS DE BARILOCHE"
    },
    {
        "province": "Chubut",
        "location": [
            -43.2099533,
            -65.2755933
        ],
        "name": "AERO TRELEW"
    },
    {
        "province": "Neuquen",
        "location": [
            -40.6999981,
            -71.9508855
        ],
        "name": "PASO CARDENAL ANTONIO SAMORE"
    },
    {
        "province": "Chubut",
        "location": [
            -42.7574457,
            -65.1132407
        ],
        "name": "AERO EL TEHUELCHE"
    },
    {
        "province": "Chubut",
        "location": [
            -32.7184733,
            -60.7311525
        ],
        "name": "PTO LIB. GRAL. SAN MARTIN (PF)"
    },
    {
        "province": "Chubut",
        "location": [
            -42.7694476,
            -65.0317175
        ],
        "name": "PUERTO MADRYN"
    },
    {
        "province": "Chubut",
        "location": [
            -42.7631222,
            -65.0337699
        ],
        "name": "PUERTO MADRYN (ALMIRANTE STORN"
    },
    {
        "province": "Neuquen",
        "location": [
            -40.1133859,
            -71.6806031
        ],
        "name": "PASO HUA - HUM"
    },
    {
        "province": "Neuquen",
        "location": [
            -40.1178721,
            -71.3897086
        ],
        "name": "AERO SAN MARTIN DE LOS ANDES"
    },
    {
        "province": "Neuquen",
        "location": [
            -39.5815859,
            -71.4673476
        ],
        "name": "PASO MAMUIL MALAL"
    },
    {
        "province": "NEUQUEN",
        "location": [
            -38.833809,
            -71.2745511
        ],
        "name": "PASO ICALMA"
    },
    {
        "province": "Rio Negro",
        "location": [
            -40.8160039,
            -64.7585573
        ],
        "name": "PUERTO SAN ANTONIO"
    },
    {
        "province": "Rio Negro",
        "location": [
            -40.816667,
            -64.75
        ],
        "name": "PUERTO SAN ANTONIO ESTE"
    },
    {
        "province": "Neuquen",
        "location": [
            -38.6678217,
            -70.8484044
        ],
        "name": "PASO PINO HACHADO"
    },
    {
        "province": "Rio Negro",
        "location": [
            -40.8630743,
            -63.0077
        ],
        "name": "AERO VIEDMA"
    },
    {
        "province": "Neuquen",
        "location": [
            -38.9521333,
            -68.142673
        ],
        "name": "AERO NEUQUEN"
    },
    {
        "province": "Neuquen",
        "location": [
            -38.9521333,
            -68.142673
        ],
        "name": "AERO NEUQUEN"
    },
    {
        "province": "Neuquen",
        "location": [
            -39.8255556,
            -71.1344162
        ],
        "name": "PASO COPAHUE"
    },
    {
        "province": "Neuquen",
        "location": [
            -37.4529913,
            -71.123967
        ],
        "name": "PASO PICHACHEN"
    },
    {
        "province": "Buenos Aires",
        "location": [
            -38.7885986,
            -62.2710768
        ],
        "name": "PUERTO BAHIA BLANCA"
    },
    {
        "province": "Buenos Aires",
        "location": [
            -38.7163059,
            -62.1660177
        ],
        "name": "AERO BAHIA BLANCA"
    },
    {
        "province": "Mendoza",
        "location": [
            -35.9821903,
            -70.3938827
        ],
        "name": "PASO PEHUENCHE"
    },
    {
        "province": "Mendoza",
        "location": [
            -35.1999817,
            -70.5254215
        ],
        "name": "PASO VERGARA"
    },
    {
        "province": "Buenos Aires",
        "location": [
            -38.5554997,
            -58.7165666
        ],
        "name": "PUERTO QUEQUEN"
    },
    {
        "province": "Buenos Aires",
        "location": [
            -38.0054771,
            -57.5426106
        ],
        "name": "PUERTO MAR DEL PLATA"
    },
    {
        "province": "Buenos Aires",
        "location": [
            -37.9341161,
            -57.5745361
        ],
        "name": "AERO MAR DEL PLATA"
    },
    {
        "province": "Mendoza",
        "location": [
            -34.2405546,
            -69.8305781
        ],
        "name": "PASO CAJON DEL MAIPO"
    },
    {
        "province": "Mendoza",
        "location": [
            -34.2405546,
            -69.8305781
        ],
        "name": "PASO PORTILLO DE PIUQUENES"
    },
    {
        "province": "Mendoza",
        "location": [
            -32.825277,
            -70.0729456
        ],
        "name": "CRISTO REDENTOR (LIBERTADORES)"
    },
    {
        "province": "Mendoza",
        "location": [
            -33.6221195,
            -69.614169
        ],
        "name": "PASO PORTILLO"
    },
    {
        "province": "Mendoza",
        "location": [
            -32.825277,
            -70.0729456
        ],
        "name": "CRISTO REDENTOR (LIBERTADORES)"
    },
    {
        "province": "Mendoza",
        "location": [
            -32.8278642,
            -68.8006789
        ],
        "name": "AEROPUERTO INTERNACIONAL GOBERNADOR FRANCISCO GABRIELLI"
    },
    {
        "province": "San Luis",
        "location": [
            -33.2762716,
            -66.3564298
        ],
        "name": "AEROPUERTO BRIGADIER MAYOR CESAR RAUL OJEDA"
    },
    {
        "province": "San Juan",
        "location": [
            -22.1902975,
            -64.6869445
        ],
        "name": "PASO EL CONDADO LAS MAMORAS"
    },
    {
        "province": "Buenos Aires",
        "location": [
            -34.8150044,
            -58.5370171
        ],
        "name": "AERO EZEIZA"
    },
    {
        "province": "Buenos Aires",
        "location": [
            -34.8150044,
            -58.5370171
        ],
        "name": "AERO EZEIZA - FBO"
    },
    {
        "province": "Buenos Aires",
        "location": [
            -34.8150044,
            -58.5370171
        ],
        "name": "AEROPUERTO INTERNACIONAL MINISTRO PISTARINI"
    },
    {
        "province": "Buenos Aires",
        "location": [
            -34.7639174,
            -58.6215814
        ],
        "name": "PUERTO SAN ISIDRO DE APIPE"
    },
    {
        "province": "Buenos Aires",
        "location": [
            -26.2800393,
            -53.6952343
        ],
        "name": "PASO BERNARDO DE IRIGOYEN"
    },
    {
        "province": "Buenos Aires",
        "location": [
            -34.9655197,
            -57.8975635
        ],
        "name": "AERO LA PLATA"
    },
    {
        "province": "Buenos Aires",
        "location": [
            -34.8645365,
            -57.8928061
        ],
        "name": "PUERTO LA PLATA"
    },
    {
        "province": "Buenos Aires",
        "location": [
            -34.7206336,
            -58.2546051
        ],
        "name": "PUERTO QUILMES"
    },
    {
        "province": "Buenos Aires",
        "location": [
            -34.5987507,
            -58.3797226
        ],
        "name": "COLONIA EXPRESS BAIRES"
    },
    {
        "province": "Buenos Aires",
        "location": [
            -34.610548,
            -58.3735919
        ],
        "name": "SAN IGNACIO DE LOYOLA (PRY)"
    },
    {
        "province": "Buenos Aires",
        "location": [
            -34.5782675,
            -58.3743079
        ],
        "name": "PUERTO BUENOS AIRES"
    },
    {
        "province": "Buenos Aires",
        "location": [
            -23.889444,
            -60.718889
        ],
        "name": "LAMADRID - M.S.LEONARDO"
    },
    {
        "province": "Buenos Aires",
        "location": [
            -34.6356073,
            -58.3574979
        ],
        "name": "FERRYLINEAS"
    },
    {
        "province": "Buenos Aires",
        "location": [
            -34.5987507,
            -58.3775286
        ],
        "name": "COLONIA EXPRESS ROU"
    },
    {
        "province": "Buenos Aires",
        "location": [
            -34.5976927,
            -58.3701064
        ],
        "name": "BUQUEBUS"
    },
    {
        "province": "Buenos Aires",
        "location": [
            -34.5832327,
            -58.3701524
        ],
        "name": "TERMINAL CRUCEROS PTO. BS. AS."
    },
    {
        "province": "Buenos Aires",
        "location": [
            -34.5580305,
            -58.4191975
        ],
        "name": "AERO JORGE NEWBERY"
    },
    {
        "province": "Buenos Aires",
        "location": [
            -34.5580305,
            -58.4191975
        ],
        "name": "AERO JORGE NEWBERY"
    },
    {
        "province": "Buenos Aires",
        "location": [
            -34.4747015,
            -58.6145741
        ],
        "name": "AERO DON TORCUATO"
    },
    {
        "province": "Buenos Aires",
        "location": [
            -34.5105515,
            -58.4963913
        ],
        "name": "PUERTO OLIVOS"
    },
    {
        "province": "Buenos Aires",
        "location": [
            -34.4747015,
            -58.6145741
        ],
        "name": "AERO SAN FERNANDO"
    },
    {
        "province": "Buenos Aires",
        "location": [
            -34.461377,
            -58.5060287
        ],
        "name": "PUERTO DE SAN ISIDRO"
    },
    {
        "province": "Buenos Aires",
        "location": [
            -34.4430618,
            -58.5579643
        ],
        "name": "PUERTO SAN FERNANDO"
    },
    {
        "province": "Buenos Aires",
        "location": [
            -34.425087,
            -58.5796585
        ],
        "name": "PUERTO TIGRE"
    },
    {
        "province": "Buenos Aires",
        "location": [
            -34.3402525,
            -58.7849434
        ],
        "name": "PUERTO ESCOBAR"
    },
    {
        "province": "Buenos Aires",
        "location": [
            -34.1554434,
            -58.9570576
        ],
        "name": "PUERTO CAMPANA"
    },
    {
        "province": "Buenos Aires",
        "location": [
            -34.0957811,
            -59.0242302
        ],
        "name": "PUERTO ZARATE"
    },
    {
        "province": "San Juan",
        "location": [
            -31.5718139,
            -68.4247562
        ],
        "name": "AERO SAN JUAN"
    },
    {
        "province": "San Juan",
        "location": [
            -31.5718139,
            -68.4247562
        ],
        "name": "AERO SAN JUAN"
    },
    {
        "province": "Buenos Aires",
        "location": [
            -34.473772,
            -57.8439708
        ],
        "name": "BUQUEBUS COLONIA"
    },
    {
        "province": "Buenos Aires",
        "location": [
            -33.8001304,
            -59.498702
        ],
        "name": "PUERTO BARADERO"
    },
    {
        "province": "Buenos Aires",
        "location": [
            -34.1824832,
            -58.2491088
        ],
        "name": "PUERTO ISLA MARTIN GARCIA"
    },
    {
        "province": "Buenos Aires",
        "location": [
            -34.9129576,
            -56.1891882
        ],
        "name": "ROU - MONTEVIDEO"
    },
    {
        "province": "Buenos Aires",
        "location": [
            -34.903491,
            -56.1903262
        ],
        "name": "MONTEVIDEO ROU"
    },
    {
        "province": "Buenos Aires",
        "location": [
            -33.6757835,
            -59.6628664
        ],
        "name": "PUERTO SAN PEDRO"
    },
    {
        "province": "Buenos Aires",
        "location": [
            -33.9023247,
            -58.8835106
        ],
        "name": "TERMINAL PORTUARIA DEL GUAZU"
    },
    {
        "province": "Buenos Aires",
        "location": [
            -34.8892631,
            -56.0576526
        ],
        "name": "BUQUEBUS MONTEVIDEO"
    },
    {
        "province": "Buenos Aires",
        "location": [
            -33.4850695,
            -60.0045531
        ],
        "name": "PUERTO RAMALLO"
    },
    {
        "province": "Buenos Aires",
        "location": [
            -33.7434675,
            -59.1557553
        ],
        "name": "PUERTO IBICUY"
    },
    {
        "province": "Buenos Aires",
        "location": [
            -34.8370494,
            -56.0161763
        ],
        "name": "AERO CARRASCO"
    },
    {
        "province": "Buenos Aires",
        "location": [
            -33.3334669,
            -60.2110494
        ],
        "name": "PUERTO SAN NICOLAS"
    },
    {
        "province": "Buenos Aires",
        "location": [
            -33.227158,
            -60.3298704
        ],
        "name": "PUERTO VILLA CONSTITUCION"
    },
    {
        "province": "Santa Fe",
        "location": [
            -33.7146367,
            -58.6583381
        ],
        "name": "PUERTO PARANACITO"
    },
    {
        "province": "Santa Fe",
        "location": [
            -32.9168872,
            -60.7825792
        ],
        "name": "AERO ROSARIO"
    },
    {
        "province": "Santa Fe",
        "location": [
            -32.9442426,
            -60.6505388
        ],
        "name": "PUERTO ROSARIO"
    },
    {
        "province": "Santa Fe",
        "location": [
            -32.9168872,
            -60.7825792
        ],
        "name": "AERO ROSARIO"
    },
    {
        "province": "Santa Fe",
        "location": [
            -32.747416,
            -60.7356754
        ],
        "name": "PUERTO SAN LORENZO"
    },
    {
        "province": "Córdoba",
        "location": [
            -36.5938265,
            -64.2811118
        ],
        "name": "AERO SANTA ROSA"
    },
    {
        "province": "Santa Fe",
        "location": [
            -32.7161131,
            -60.7314613
        ],
        "name": "PUERTO SAN MARTIN"
    },
    {
        "province": "Santa Fe",
        "location": [
            -32.7161131,
            -60.7314613
        ],
        "name": "PUERTO SAN MARTIN (PF)"
    },
    {
        "province": "Cordoba",
        "location": [
            -31.3154367,
            -64.2145085
        ],
        "name": "AERO CORDOBA"
    },
    {
        "province": "Entre Rios",
        "location": [
            -33.0696649,
            -58.4319954
        ],
        "name": "PUERTO BOCA DEL GUALEGUAYCHU"
    },
    {
        "province": "San Juan",
        "location": [
            -30.1922204,
            -69.8358856
        ],
        "name": "PASO AGUA NEGRA"
    },
    {
        "province": "Cordoba",
        "location": [
            -31.3154367,
            -64.2145085
        ],
        "name": "AERO CORDOBA"
    },
    {
        "province": "Cordoba",
        "location": [
            -32.3683712,
            -70.2314398
        ],
        "name": "PASO VALLE HERMOSO"
    },
    {
        "province": "Entre Rios",
        "location": [
            -32.0697098,
            -60.6378708
        ],
        "name": "PUERTO DIAMANTE"
    },
    {
        "province": "Entre Rios",
        "location": [
            -29.1156361,
            -56.554963
        ],
        "name": "PUERTO ALVEAR"
    },
    {
        "province": "Entre Rios",
        "location": [
            -29.1156361,
            -56.554963
        ],
        "name": "PUERTO ALVEAR"
    },
    {
        "province": "Entre Rios",
        "location": [
            -32.4926809,
            -58.2305719
        ],
        "name": "PUERTO CONCEPCION DEL URUGUAY"
    },
    {
        "province": "Entre Rios",
        "location": [
            -31.7088748,
            -60.8100047
        ],
        "name": "AEROPUERTO DE SAUCE VIEJO"
    },
    {
        "province": "Entre Rios",
        "location": [
            -31.7900161,
            -60.4864431
        ],
        "name": "AERO PARANA"
    },
    {
        "province": "Entre Rios",
        "location": [
            -31.720453,
            -60.5201132
        ],
        "name": "PUERTO DE PARANA"
    },
    {
        "province": "Santa Fe",
        "location": [
            -31.6106578,
            -60.697294
        ],
        "name": "PUERTO SANTA FE"
    },
    {
        "province": "Santa Fe",
        "location": [
            -32.2149531,
            -58.1378887
        ],
        "name": "PUERTO COLON"
    },
    {
        "province": "Santa Fe",
        "location": [
            -32.2165573,
            -58.1470583
        ],
        "name": "PUERTO COLON"
    },
    {
        "province": "San Juan",
        "location": [
            -29.3178247,
            -70.0146428
        ],
        "name": "PASO PASCUA LAMA"
    },
    {
        "province": "La Rioja",
        "location": [
            -29.3838767,
            -66.7963367
        ],
        "name": "AERO LA RIOJA"
    },
    {
        "province": "La Rioja",
        "location": [
            -29.3838767,
            -66.7963367
        ],
        "name": "AEROPUERTO DE TUCUMAN / LA RIOJA"
    },
    {
        "province": "Entre Rios",
        "location": [
            -31.4026545,
            -58.0051584
        ],
        "name": "PUERTO CONCORDIA"
    },
    {
        "province": "Entre Rios",
        "location": [
            -30.9850361,
            -57.9198417
        ],
        "name": "PUERTO FEDERACION"
    },
    {
        "province": "Entre Rios",
        "location": [
            -30.9612161,
            -57.9366109
        ],
        "name": "PUERTO PASO DE LA BARCA"
    },
    {
        "province": "Mendoza",
        "location": [
            -32.8278642,
            -68.8006789
        ],
        "name": "AERO MENDOZA"
    },
    {
        "province": "San Luis",
        "location": [
            -33.2762671,
            -66.3564298
        ],
        "name": "AERO SAN LUIS"
    },
    {
        "province": "Entre Rios",
        "location": [
            -31.378569,
            -58.1118352
        ],
        "name": "AERO CONCORDIA"
    },
    {
        "province": "La Rioja",
        "location": [
            -28.1739961,
            -69.1472237
        ],
        "name": "PASO PIRCAS NEGRAS"
    },
    {
        "province": "Corrientes",
        "location": [
            -30.0184837,
            -59.5314088
        ],
        "name": "PUERTO ESQUINA"
    },
    {
        "province": "Catamarca",
        "location": [
            -28.5924952,
            -65.7571861
        ],
        "name": "AERO CORONEL FELIPE VARELA"
    },
    {
        "province": "Catamarca",
        "location": [
            -23.2375,
            -67.076389
        ],
        "name": "JAMA NORTE"
    },
    {
        "province": "Corrientes",
        "location": [
            -30.2531458,
            -57.6365555
        ],
        "name": "PUERTO MONTE CASEROS"
    },
    {
        "province": "Corrientes",
        "location": [
            -29.7321716,
            -57.1202727
        ],
        "name": "PASO DE LOS LIBRES"
    },
    {
        "province": "Corrientes",
        "location": [
            -29.1442242,
            -59.2643242
        ],
        "name": "PUERTO GOYA"
    },
    {
        "province": "Santiago del Estero",
        "location": [
            -27.7575812,
            -64.3032
        ],
        "name": "AERO SANTIAGO"
    },
    {
        "province": "Corrientes",
        "location": [
            -29.4697685,
            -56.8163948
        ],
        "name": "PUERTO YAPEYU"
    },
    {
        "province": "Santiago del Estero",
        "location": [
            -27.7575812,
            -64.3032
        ],
        "name": "AERO SANTIAGO DEL ESTERO"
    },
    {
        "province": "Santiago del Estero",
        "location": [
            -27.5063076,
            -64.9352342
        ],
        "name": "AEROPUERTO INTERNACIONAL TERMAS DE RIO HONDO"
    },
    {
        "province": "Catamarca",
        "location": [
            -26.8716468,
            -68.305977
        ],
        "name": "PASO SAN FRANCISCO"
    },
    {
        "province": "Tucuman",
        "location": [
            -26.8358881,
            -65.1105502
        ],
        "name": "AEROPUERTO INTERNACIONAL TENIENTE GENERAL BENJAMIN MATIENZO"
    },
    {
        "province": "Tucuman",
        "location": [
            -26.8358881,
            -65.1105502
        ],
        "name": "AEROPUERTO INTERNACIONAL TENIENTE GENERAL BENJAMIN MATIENZO"
    },
    {
        "province": "Corrientes",
        "location": [
            -27.4915202,
            -58.9282054
        ],
        "name": "PUERTO BARRANQUERAS"
    },
    {
        "province": "Chaco",
        "location": [
            -27.444921,
            -59.0509272
        ],
        "name": "AERO RESISTENCIA"
    },
    {
        "province": "Corrientes",
        "location": [
            -27.460813,
            -58.8377291
        ],
        "name": "PUERTO CORRIENTES"
    },
    {
        "province": "Corrientes",
        "location": [
            -27.4483126,
            -58.7604028
        ],
        "name": "AERO CORRIENTES"
    },
    {
        "province": "Corrientes",
        "location": [
            -28.1737056,
            -55.6506335
        ],
        "name": "PUERTO GARRUCHOS"
    },
    {
        "province": "Corrientes",
        "location": [
            -27.3148011,
            -58.5636468
        ],
        "name": "PUERTO PASO DE LA PATRIA"
    },
    {
        "province": "Corrientes",
        "location": [
            -27.2727981,
            -58.2425644
        ],
        "name": "PUERTO ITATI"
    },
    {
        "province": "Corrientes",
        "location": [
            -27.3732322,
            -57.6545305
        ],
        "name": "PUERTO YAHAPE"
    },
    {
        "province": "Corrientes",
        "location": [
            -27.5884602,
            -56.6900782
        ],
        "name": "PUERTO ITUZAINGO"
    },
    {
        "province": "Corrientes",
        "location": [
            -27.4282067,
            -57.3380022
        ],
        "name": "PUERTO ITA IBATE"
    },
    {
        "province": "Misiones",
        "location": [
            -27.8943996,
            -55.3555984
        ],
        "name": "PUERTO SANTA MARIA"
    },
    {
        "province": "Formosa",
        "location": [
            -27.1182902,
            -58.6455234
        ],
        "name": "PUERTO LAS PALMAS"
    },
    {
        "province": "Corrientes",
        "location": [
            -27.4826809,
            -56.7385743
        ],
        "name": "YACIRETA (CTES)"
    },
    {
        "province": "Misiones",
        "location": [
            -27.8663111,
            -55.1374743
        ],
        "name": "PUERTO SAN JAVIER"
    },
    {
        "province": "Chaco",
        "location": [
            -26.9284561,
            -58.5121455
        ],
        "name": "PUERTO BERMEJO"
    },
    {
        "province": "Misiones",
        "location": [
            -27.7303477,
            -54.9169915
        ],
        "name": "PANAMBI - VERACRUZ"
    },
    {
        "province": "Misiones",
        "location": [
            -27.7240711,
            -54.9150996
        ],
        "name": "PUERTO PANAMBI"
    },
    {
        "province": "Misiones",
        "location": [
            -27.39174,
            -55.9716548
        ],
        "name": "AERO POSADAS"
    },
    {
        "province": "Misiones",
        "location": [
            -27.4527203,
            -55.7534315
        ],
        "name": "PUERTO CANDELARIA"
    },
    {
        "province": "Misiones",
        "location": [
            -27.3917448,
            -55.9716548
        ],
        "name": "AEROPUERTO INTERNACIONAL DE POSADAS LIBERTADOR GENERAL JOSE DE SAN MARTIN"
    },
    {
        "province": "Formosa",
        "location": [
            -26.8539119,
            -58.3264057
        ],
        "name": "PUERTO COLONIA CANO"
    },
    {
        "province": "Misiones",
        "location": [
            -27.3621374,
            -55.9008746
        ],
        "name": "PUERTO POSADAS"
    },
    {
        "province": "Misiones",
        "location": [
            -27.3735124,
            -55.8829319
        ],
        "name": "PTE. SAN ROQUE GONZALEZ DE SAN"
    },
    {
        "province": "Misiones",
        "location": [
            -27.6026971,
            -54.8492826
        ],
        "name": "PUERTO BARRA BONITA"
    },
    {
        "province": "Misiones",
        "location": [
            -27.3692482,
            -55.5817447
        ],
        "name": "PUERTO SANTA ANA"
    },
    {
        "province": "Misiones",
        "location": [
            -27.5711373,
            -54.6822256
        ],
        "name": "PUERTO ALBA POSSE"
    },
    {
        "province": "Misiones",
        "location": [
            -27.5711373,
            -54.6822256
        ],
        "name": "PUERTO ALBA POSSE (PF)"
    },
    {
        "province": "Misiones",
        "location": [
            -27.2575078,
            -55.5354048
        ],
        "name": "PUERTO SAN IGNACIO"
    },
    {
        "province": "Misiones",
        "location": [
            -27.4996386,
            -54.5227289
        ],
        "name": "PUERTO AURORA"
    },
    {
        "province": "Misiones",
        "location": [
            -27.1064017,
            -55.5221525
        ],
        "name": "PUERTO MANI"
    },
    {
        "province": "Misiones",
        "location": [
            -27.294403,
            -54.227733
        ],
        "name": "EL SOBERBIO - P.SOBERBO"
    },
    {
        "province": "Misiones",
        "location": [
            -27.294403,
            -54.227733
        ],
        "name": "EL SOBERBIO - P.SOBERBO (PF)"
    },
    {
        "province": "Misiones",
        "location": [
            -26.9717583,
            -55.2487481
        ],
        "name": "PUERTO OASIS"
    },
    {
        "province": "Misiones",
        "location": [
            -26.9845105,
            -55.1649008
        ],
        "name": "PUERTO LEONI"
    },
    {
        "province": "Formosa",
        "location": [
            -26.216682,
            -58.2327793
        ],
        "name": "AEROPUERTO INTERNACIONAL DE FORMOSA"
    },
    {
        "province": "Formosa",
        "location": [
            -26.1857768,
            -58.1755669
        ],
        "name": "PUERTO FORMOSA"
    },
    {
        "province": "Misiones",
        "location": [
            -26.820361,
            -54.9562728
        ],
        "name": "PUERTO GARUHAPE"
    },
    {
        "province": "Salta",
        "location": [
            -24.8442303,
            -65.4806004
        ],
        "name": "AEROPUERTO INTERNACIONAL MARTIN MIGUEL DE GUEMES"
    },
    {
        "province": "Salta",
        "location": [
            -24.4014825,
            -68.2217192
        ],
        "name": "PASO SOCOMPA"
    },
    {
        "province": "Salta",
        "location": [
            -24.8442303,
            -65.4806004
        ],
        "name": "AERO SALTA"
    },
    {
        "province": "Misiones",
        "location": [
            -26.6963687,
            -54.8203158
        ],
        "name": "PUERTO PARANAY"
    },
    {
        "province": "Misiones",
        "location": [
            -26.5716167,
            -54.7413116
        ],
        "name": "PUERTO MONTECARLO"
    },
    {
        "province": "Misiones",
        "location": [
            -26.4686865,
            -54.7158799
        ],
        "name": "PUERTO PIRAY"
    },
    {
        "province": "Misiones",
        "location": [
            -26.416667,
            -54.683333
        ],
        "name": "PUERTO PINARES"
    },
    {
        "province": "Misiones",
        "location": [
            -26.4068823,
            -54.6369172
        ],
        "name": "PUERTO ELDORADO"
    },
    {
        "province": "Misiones",
        "location": [
            -26.402929,
            -54.6174631
        ],
        "name": "PUERTO MADO"
    },
    {
        "province": "Misiones",
        "location": [
            -26.3304932,
            -54.6224441
        ],
        "name": "PUERTO VICTORIA"
    },
    {
        "province": "Jujuy",
        "location": [
            -24.3859805,
            -65.0960637
        ],
        "name": "AERO JUJUY"
    },
    {
        "province": "Jujuy",
        "location": [
            -22.7263099,
            -64.3717997
        ],
        "name": "PASO AGUAS BLANCAS"
    },
    {
        "province": "Formosa",
        "location": [
            -25.3726325,
            -57.6514475
        ],
        "name": "PUERTO PILCOMAYO"
    },
    {
        "province": "Formosa",
        "location": [
            -25.3726325,
            -57.6514475
        ],
        "name": "PUERTO PILCOMAYO (PF)"
    },
    {
        "province": "Misiones",
        "location": [
            -25.9699428,
            -54.5991493
        ],
        "name": "PUERTO WANDA"
    },
    {
        "province": "Salta",
        "location": [
            -23.8425558,
            -67.2626032
        ],
        "name": "PASO SICO"
    },
    {
        "province": "Misiones",
        "location": [
            -25.9210525,
            -54.5839367
        ],
        "name": "PUERTO LIBERTAD"
    },
    {
        "province": "Formosa",
        "location": [
            -25.2415129,
            -57.5163701
        ],
        "name": "AEROPUERTO INTERNACIONAL SILVIO PETTIROSSI"
    },
    {
        "province": "Misiones",
        "location": [
            -25.5938142,
            -54.4931206
        ],
        "name": "AERO CATARATAS DEL IGUAZU"
    },
    {
        "province": "Misiones",
        "location": [
            -25.2650713,
            -57.7257362
        ],
        "name": "PTE. SAN IGNACIO DE LOYOLA"
    },
    {
        "province": "Misiones",
        "location": [
            -25.5966177,
            -54.5836373
        ],
        "name": "PUERTO IGUAZU - TRES FRONTERAS"
    },
    {
        "province": "Misiones",
        "location": [
            -25.5971635,
            -54.578599
        ],
        "name": "PUERTO IGUAZU"
    },
    {
        "province": "Misiones",
        "location": [
            -25.5876145,
            -54.5645075
        ],
        "name": "PTE. INT. TANCREDO NEVES"
    },
    {
        "province": "Jujuy",
        "location": [
            -23.2375,
            -67.076389
        ],
        "name": "PASO DE JAMA"
    },
    {
        "province": "Jujuy",
        "location": [
            -22.7313839,
            -64.3532998
        ],
        "name": "PUERTO CHALANAS"
    },
    {
        "province": "Jujuy",
        "location": [
            -22.096667,
            -65.596389
        ],
        "name": "LA QUIACA - VILLAZON"
    },
    {
        "province": "Jujuy",
        "location": [
            -22.0554561,
            -63.6885824
        ],
        "name": "SALVADOR MAZZA - YACUIBA"
    },
    {
        "province": "Rio Negro",
        "location": [
            -41.1467101,
            -71.1642129
        ],
        "name": "AERO BARILOCHE"
    },
    {
        "province": "Formosa",
        "location": [
            -26.216682,
            -58.2327793
        ],
        "name": "AERO FORMOSA"
    },
    {
        "province": "Mendoza",
        "location": [
            -35.4834837,
            -69.5867919
        ],
        "name": "AERO MALARGUE"
    },
    {
        "province": "Buenos Aires",
        "location": [
            -37.9341161,
            -57.5745361
        ],
        "name": "AERO MAR DEL PLATA"
    },
    {
        "province": "Mendoza",
        "location": [
            -29.6881667,
            -57.1553125
        ],
        "name": "AERO PASO DE LOS LIBRES"
    },
    {
        "province": "Tierra del Fuego",
        "location": [
            -53.7856913,
            -67.7582472
        ],
        "name": "AERO RIO GRANDE"
    },
    {
        "province": "Santa Fe",
        "location": [
            -31.7088748,
            -60.8100047
        ],
        "name": "AERO SAUCE VIEJO"
    },
    {
        "province": "Jujuy",
        "location": [
            -22.619167,
            -63.793333
        ],
        "name": "AERO TARTAGAL"
    },
    {
        "province": "Santiago del Estero",
        "location": [
            -27.5063076,
            -64.9352342
        ],
        "name": "AERO TERMAS RIO HONDO"
    },
    {
        "province": "Misiones",
        "location": [
            -25.601999,
            -53.975597
        ],
        "name": "ANDRESITO - CAPANEMA"
    },
    {
        "province": "Mendoza",
        "location": [
            -32.825277,
            -70.0729456
        ],
        "name": "CRISTO REDENTOR (HORCONES)"
    },
    {
        "province": "Mendoza",
        "location": [
            -32.825277,
            -70.0729456
        ],
        "name": "CRISTO REDENTOR PUNTA DE VACAS"
    },
    {
        "province": "Formosa",
        "location": [
            -23.6772893,
            -61.9181406
        ],
        "name": "EL REMANSO - LA VERDE"
    },
    {
        "province": "Chaco",
        "location": [
            -24.8027954,
            -59.2496609
        ],
        "name": "GRL BELGRANO - GRL BRUGUEZ"
    },
    {
        "province": "Entre Rios",
        "location": [
            -33.0056407,
            -58.5146586
        ],
        "name": "GUALEGUAYCHU - FRAY BENTOS"
    },
    {
        "province": "Neuquen",
        "location": [
            -40.1133859,
            -71.6806031
        ],
        "name": "HUA HUM (FLUVIAL)"
    },
    {
        "province": "Misiones",
        "location": [
            -25.768889,
            -53.851111
        ],
        "name": "INTEGRACION - PLANALTO"
    },
    {
        "province": "Rio Negro",
        "location": [
            -41.697539,
            -65.0469293
        ],
        "name": "MUELLE PUNTA COLORADA"
    },
    {
        "province": "Formosa",
        "location": [
            -25.2860542,
            -57.7112013
        ],
        "name": "PASARELA LA FRATERNIDAD"
    },
    {
        "province": "Tierra del Fuego",
        "location": [
            -53.657868,
            -68.6045084
        ],
        "name": "PASO ALFA CULLEN"
    },
    {
        "province": "Jujuy",
        "location": [
            -23.216667,
            -67.05
        ],
        "name": "PASO DE JAMA SUR"
    },
    {
        "province": "Mendoza",
        "location": [
            -31.2999984,
            -70.5675526
        ],
        "name": "PASO EL AZUFRE"
    },
    {
        "province": "Formosa",
        "location": [
            -24.012778,
            -60.0375
        ],
        "name": "PASO ISLETA"
    },
    {
        "province": "Chubut",
        "location": [
            -45.2213569,
            -71.3610803
        ],
        "name": "PASO PAMPA ALTA"
    },
    {
        "province": "Santa Cruz",
        "location": [
            -48.8772007,
            -72.7288579
        ],
        "name": "PASO PORTEZUELO DE LA DIVISORIA"
    },
    {
        "province": "Buenos Aires",
        "location": [
            -34.1176359,
            -57.9897668
        ],
        "name": "ROU COLONIA"
    },
    {
        "province": "Buenos Aires",
        "location": [
            -34.1176359,
            -57.9897668
        ],
        "name": "ROU COLONIA"
    },
    {
        "province": "Misiones",
        "location": [
            -25.6221088,
            -54.6080637
        ],
        "name": "ZONA FRANCA IGUAZU (TRANSITO)"
    }
]
